[
  {
    "type": "museum",
    "name": "국립중앙박물관",
    "address": "대한민국 서울특별시 용산구 서빙고로 137",
    "location": {
      "lat": 37.5238506,
      "lng": 126.9804702
    }
  },
  {
    "type": "museum",
    "name": "국립고궁박물관",
    "address": "대한민국 서울특별시 종로구 효자로 12",
    "location": {
      "lat": 37.5766084,
      "lng": 126.974951
    }
  },
  {
    "type": "museum",
    "name": "국립국악원",
    "address": "대한민국 서울특별시 서초구 남부순환로 2364 국립국악원",
    "location": {
      "lat": 37.4777592,
      "lng": 127.0083043
    }
  },
  {
    "type": "museum",
    "name": "국립민속박물관",
    "address": "대한민국 서울특별시 종로구 삼청로 37",
    "location": {
      "lat": 37.5816456,
      "lng": 126.9789948
    }
  },
  {
    "type": "museum",
    "name": "대한민국역사박물관",
    "address": "대한민국 서울특별시 종로구 세종대로 198",
    "location": {
      "lat": 37.5738329,
      "lng": 126.9781104
    }
  },
  {
    "type": "art",
    "name": "국립극장",
    "address": "대한민국 서울특별시 중구 장충단로 59",
    "location": {
      "lat": 37.5528597,
      "lng": 126.9998129
    }
  },
  {
    "type": "art",
    "name": "예술의전당",
    "address": "대한민국 서울특별시 서초구 남부순환로 2406",
    "location": {
      "lat": 37.4786094,
      "lng": 127.0113069
    }
  },
  {
    "type": "art",
    "name": "정동극장",
    "address": "대한민국 서울특별시 중구 정동 정동길 43",
    "location": {
      "lat": 37.5659672,
      "lng": 126.9728593
    }
  },
  {
    "type": "art",
    "name": "국립현대미술관 서울",
    "address": "대한민국 서울특별시 중구 세종대로",
    "location": {
      "lat": 37.5658959,
      "lng": 126.9736922
    }
  },
  {
    "type": "book",
    "name": "국립세종도서관",
    "address": "대한민국 세종특별자치시 다솜3로 48",
    "location": {
      "lat": 36.4987184,
      "lng": 127.2683523
    }
  },
  {
    "type": "book",
    "name": "국립중앙도서관",
    "address": "대한민국 서울특별시 서초구 반포대로 201",
    "location": {
      "lat": 37.497689,
      "lng": 127.0028333
    }
  },
  {
    "type": "book",
    "name": "국립어린이청소년도서관",
    "address": "대한민국 서울특별시 강남구 테헤란로7길 21",
    "location": {
      "lat": 37.5008695,
      "lng": 127.0296393
    }
  },
  {
    "type": "movie",
    "name": "대한극장",
    "address": "대한민국 서울특별시",
    "location": {
      "lat": 37.5610574,
      "lng": 126.9953257
    }
  },
  {
    "type": "movie",
    "name": "인디스페이스",
    "address": "대한민국 서울특별시 마포구 동교동 양화로 176 홍대와이즈파크관리단 8층",
    "location": {
      "lat": 37.5572099,
      "lng": 126.9249716
    }
  },
  {
    "type": "movie",
    "name": "필름포럼",
    "address": "대한민국 서울특별시 서대문구 성산로 527",
    "location": {
      "lat": 37.5637568,
      "lng": 126.9441118
    }
  },
  {
    "type": "movie",
    "name": "이봄씨어터",
    "address": "대한민국 서울특별시 강남구 신사동 압구정로10길 9",
    "location": {
      "lat": 37.5229472,
      "lng": 127.022017
    }
  },
  {
    "type": "movie",
    "name": "시티렉스",
    "address": "대한민국 서울특별시 금천구 시흥대로 399",
    "location": {
      "lat": 37.4693508,
      "lng": 126.8972301
    }
  }
]